,City,Country,Date,Lat,Lng,Max Temp,Humidity,Cloudiness,Wind Speed,Current Description,Rain inches (last 3 hours),Snow inches (last 3 hours)
0,Rocha,UY,2022-04-11 03:23:26,-34.4833,-54.3333,67.51,89,100,11.16,overcast clouds,0,0
1,Fortuna,US,2022-04-11 03:24:58,40.5982,-124.1573,49.66,82,20,0.0,few clouds,0,0
2,Port Hardy,CA,2022-04-11 03:22:35,50.6996,-127.4199,44.6,70,75,8.05,broken clouds,0,0
3,Mataura,NZ,2022-04-11 03:24:59,-46.1927,168.8643,65.48,51,72,10.94,light rain,0,0
4,Bredasdorp,ZA,2022-04-11 03:24:59,-34.5322,20.0403,60.37,96,27,2.48,scattered clouds,0,0
5,Vaini,TO,2022-04-11 03:25:00,-21.2,-175.2,80.76,89,40,11.5,light intensity shower rain,0,0
6,Mandan,US,2022-04-11 03:25:01,46.8267,-100.8896,43.02,74,75,5.75,broken clouds,0,0
7,Tucuman,AR,2022-04-11 03:25:01,-26.8241,-65.2226,68.0,100,40,3.44,mist,0,0
8,Eskilstuna,SE,2022-04-11 03:25:02,59.3666,16.5077,34.74,79,18,1.01,few clouds,0,0
9,Antsohihy,MG,2022-04-11 03:25:03,-14.8796,47.9875,76.44,76,9,8.43,clear sky,0,0
10,Saskylakh,RU,2022-04-11 03:25:03,71.9167,114.0833,-4.63,93,23,5.39,few clouds,0,0
11,Saint Anthony,US,2022-04-11 03:22:33,45.0205,-93.218,57.13,54,0,16.11,clear sky,0,0
12,Kholodnyy,RU,2022-04-11 03:25:04,62.7167,147.95,3.33,60,70,1.23,broken clouds,0,0
13,Tiksi,RU,2022-04-11 03:25:05,71.6872,128.8694,0.95,83,100,3.83,overcast clouds,0,0
14,Hilo,US,2022-04-11 03:22:57,19.7297,-155.09,76.73,87,100,8.05,light rain,0.76,0
15,Yellowknife,CA,2022-04-11 03:21:13,62.456,-114.3525,12.42,77,20,12.66,few clouds,0,0
16,Carnarvon,AU,2022-04-11 03:25:05,-24.8667,113.6333,75.27,50,23,10.36,few clouds,0,0
17,Rikitea,PF,2022-04-11 03:22:53,-23.1203,-134.9692,78.96,74,0,17.83,clear sky,0,0
18,Mar Del Plata,AR,2022-04-11 03:24:05,-38.0023,-57.5575,67.08,93,100,9.22,moderate rain,0,0
19,Rudbar,AF,2022-04-11 03:25:07,30.15,62.6,80.4,13,48,5.01,scattered clouds,0,0
20,Kodinsk,RU,2022-04-11 03:25:07,58.6881,99.1844,32.4,73,72,5.12,broken clouds,0,0
21,Cape Town,ZA,2022-04-11 03:21:44,-33.9258,18.4232,68.92,73,0,4.0,clear sky,0,0
22,Nsanje,MW,2022-04-11 03:25:08,-16.92,35.262,71.4,93,100,2.13,overcast clouds,0,0
23,Biltine,TD,2022-04-11 03:25:09,14.5333,20.9167,84.09,12,99,11.03,overcast clouds,0,0
24,Atuona,PF,2022-04-11 03:22:54,-9.8,-139.0333,79.29,77,11,16.13,few clouds,0,0
25,Bluff,NZ,2022-04-11 03:25:10,-46.6,168.3333,65.8,63,100,20.83,overcast clouds,0,0
26,Beloha,MG,2022-04-11 03:25:10,-25.1667,45.05,72.07,83,72,16.73,broken clouds,0,0
27,Mombetsu,JP,2022-04-11 03:25:11,44.3525,143.3525,42.82,93,75,5.75,broken clouds,0,0
28,Jamestown,US,2022-04-11 03:23:41,42.097,-79.2353,33.71,60,0,6.91,clear sky,0,0
29,Banda Aceh,ID,2022-04-11 03:25:12,5.5577,95.3222,84.43,69,96,2.04,overcast clouds,0,0
30,Ushuaia,AR,2022-04-11 03:25:13,-54.8,-68.3,40.66,81,100,3.44,overcast clouds,0,0
31,Srednekolymsk,RU,2022-04-11 03:25:13,67.45,153.6833,8.44,78,100,11.03,overcast clouds,0,0
32,Hithadhoo,MV,2022-04-11 03:21:20,-0.6,73.0833,83.7,65,38,10.49,scattered clouds,0,0
33,Busselton,AU,2022-04-11 03:22:47,-33.65,115.3333,65.62,47,15,8.19,few clouds,0,0
34,Port Lincoln,AU,2022-04-11 03:25:14,-34.7333,135.8667,65.48,69,99,15.41,overcast clouds,0,0
35,Punta Arenas,CL,2022-04-11 03:25:15,-53.15,-70.9167,44.71,87,100,8.05,overcast clouds,0,0
36,Saint Joseph,US,2022-04-11 03:23:25,39.7686,-94.8466,57.58,43,0,14.0,clear sky,0,0
37,Port Augusta,AU,2022-04-11 03:25:16,-32.5,137.7667,88.81,20,6,2.06,clear sky,0,0
38,Broome,US,2022-04-11 03:25:16,42.2506,-75.833,37.2,73,100,5.75,overcast clouds,0,0
39,Palmeiras De Goias,BR,2022-04-11 03:25:16,-16.805,-49.9258,71.89,78,54,1.5,broken clouds,0,0
40,Svetlogorsk,BY,2022-04-11 03:25:17,52.6333,29.7333,35.76,79,100,6.85,overcast clouds,0,0
41,Panji,ID,2022-04-11 03:25:17,-7.7253,114.0995,86.49,57,4,3.42,clear sky,0,0
42,Ogulin,HR,2022-04-11 03:25:17,45.2661,15.2286,31.6,78,7,2.82,clear sky,0,0
43,Margate,GB,2022-04-11 03:25:18,51.3813,1.3862,45.7,76,94,5.01,overcast clouds,0,0
44,Puerto Ayora,EC,2022-04-11 03:25:19,-0.7393,-90.3518,77.56,94,100,4.0,overcast clouds,0,0
45,Hobart,AU,2022-04-11 03:22:49,-42.8794,147.3294,63.01,45,40,10.36,scattered clouds,0,0
46,Saint-Louis,SN,2022-04-11 03:25:19,16.3333,-15.0,69.44,40,5,14.2,clear sky,0,0
47,Greece,US,2022-04-11 03:25:20,43.2098,-77.6931,40.35,71,75,6.91,broken clouds,0,0
48,Wakkanai,JP,2022-04-11 03:25:20,45.4094,141.6739,44.58,93,75,12.66,broken clouds,0,0
49,Tazovskiy,RU,2022-04-11 03:25:21,67.4667,78.7,19.22,95,100,11.63,light snow,0,0
50,Dikson,RU,2022-04-11 03:22:58,73.5069,80.5464,-2.13,99,92,4.43,overcast clouds,0,0
51,Upernavik,GL,2022-04-11 03:25:22,72.7868,-56.1549,4.24,89,100,5.28,overcast clouds,0,0
52,Nuqui,CO,2022-04-11 03:25:22,5.7125,-77.2708,77.94,88,100,2.8,light rain,0,0
53,Palana,RU,2022-04-11 03:25:22,59.1167,159.9667,23.23,82,100,16.58,overcast clouds,0,0
54,Kailua,US,2022-04-11 03:25:23,21.4022,-157.7394,82.38,79,87,7.0,overcast clouds,0,0
55,Liku,ID,2022-04-11 03:25:23,-0.7275,119.8922,85.96,67,77,3.04,broken clouds,0,0
56,Yining,CN,2022-04-11 03:25:24,29.0361,114.5636,86.07,38,0,3.94,clear sky,0,0
57,Cabo San Lucas,MX,2022-04-11 03:25:25,22.8909,-109.9124,72.7,73,5,8.01,clear sky,0,0
58,Dukat,RU,2022-04-11 03:25:25,62.55,155.55,1.53,82,95,5.5,overcast clouds,0,0
59,Geraldton,AU,2022-04-11 03:25:26,-28.7667,114.6,72.01,60,40,17.27,scattered clouds,0,0
60,Hermanus,ZA,2022-04-11 03:25:26,-34.4187,19.2345,61.81,90,35,9.98,scattered clouds,0,0
61,Mahon,ES,2022-04-11 03:25:27,39.8885,4.2658,54.16,82,0,10.36,clear sky,0,0
62,Kamenka,RU,2022-04-11 03:25:27,51.3223,42.7678,50.58,78,100,11.07,overcast clouds,0,0
63,Urdoma,RU,2022-04-11 03:25:28,61.7533,48.5442,35.49,100,100,4.03,overcast clouds,0,0
64,Tarrega,ES,2022-04-11 03:25:28,41.647,1.1396,44.58,91,50,6.38,scattered clouds,0,0
65,Sambava,MG,2022-04-11 03:25:29,-14.2667,50.1667,74.86,89,83,9.48,broken clouds,0,0
66,Hofn,IS,2022-04-11 03:25:29,64.2539,-15.2082,35.56,71,100,8.03,overcast clouds,0,0
67,Kodiak,US,2022-04-11 03:23:16,57.79,-152.4072,45.91,31,0,4.61,clear sky,0,0
68,Butaritari,KI,2022-04-11 03:25:30,3.0707,172.7902,79.83,77,90,3.87,moderate rain,0,0
69,Cayenne,GF,2022-04-11 03:25:30,4.9333,-52.3333,80.1,1,75,5.99,broken clouds,0,0
70,Saint-Gabriel,CA,2022-04-11 03:25:31,46.3001,-73.3824,37.08,74,5,11.39,clear sky,0,0
71,Sola,VU,2022-04-11 03:25:31,-13.8833,167.55,88.47,70,40,3.44,scattered clouds,0,0
72,Plettenberg Bay,ZA,2022-04-11 03:25:32,-34.0527,23.3716,64.02,73,27,4.65,scattered clouds,0,0
73,Kingston,JM,2022-04-11 03:24:00,17.997,-76.7936,79.75,87,40,9.22,scattered clouds,0,0
74,Ancud,CL,2022-04-11 03:25:33,-41.8697,-73.8203,48.54,80,18,4.83,few clouds,0,0
75,Suraabad,AZ,2022-04-11 03:25:33,40.8192,49.4687,54.43,71,78,13.29,broken clouds,0,0
76,Vila Franca Do Campo,PT,2022-04-11 03:25:33,37.7167,-25.4333,57.61,74,94,19.71,overcast clouds,0,0
77,Chokurdakh,RU,2022-04-11 03:25:34,70.6333,147.9167,-2.22,91,95,3.04,overcast clouds,0,0
78,Nouadhibou,MR,2022-04-11 03:25:34,20.931,-17.0347,62.58,88,27,17.27,scattered clouds,0,0
79,Mayumba,GA,2022-04-11 03:25:35,-3.432,10.6554,76.44,93,79,3.98,light rain,0,0
80,Dvinskoy,RU,2022-04-11 03:25:36,62.1535,45.1175,32.23,97,97,3.29,overcast clouds,0,0
81,Tasiilaq,GL,2022-04-11 03:25:36,65.6145,-37.6368,12.36,88,78,4.05,broken clouds,0,0
82,Kapaa,US,2022-04-11 03:25:36,22.0752,-159.319,78.78,88,100,14.97,overcast clouds,0,0
83,Mardin,TR,2022-04-11 03:25:37,37.3131,40.7436,54.66,44,35,9.22,scattered clouds,0,0
84,Buraydah,SA,2022-04-11 03:25:37,26.326,43.975,72.05,20,97,8.66,overcast clouds,0,0
85,Linqing,CN,2022-04-11 03:25:37,36.8456,115.7117,88.63,32,4,18.03,clear sky,0,0
86,Guerrero Negro,MX,2022-04-11 03:24:25,27.9769,-114.0611,60.78,80,0,11.9,clear sky,0,0
87,Arlit,NE,2022-04-11 03:25:38,18.7369,7.3853,84.04,9,0,7.47,clear sky,0,0
88,Bengkulu,ID,2022-04-11 03:22:18,-3.8004,102.2655,83.48,67,81,2.73,broken clouds,0,0
89,Norman Wells,CA,2022-04-11 03:25:38,65.282,-126.8329,15.84,57,20,10.36,few clouds,0,0
90,Micheweni,TZ,2022-04-11 03:25:39,-4.9667,39.8333,81.36,77,97,10.4,light rain,0,0
91,Tahta,EG,2022-04-11 03:25:39,26.7693,31.5021,73.18,24,3,7.05,clear sky,0,0
92,Gat,IL,2022-04-11 03:25:40,31.61,34.7642,64.4,80,16,4.29,few clouds,0,0
93,Thompson,CA,2022-04-11 03:22:33,55.7435,-97.8558,30.36,74,75,3.44,broken clouds,0,0
94,Mahebourg,MU,2022-04-11 03:25:41,-20.4081,57.7,77.29,73,40,10.36,scattered clouds,0,0
95,Defiance,US,2022-04-11 03:25:41,41.3334,-84.45,53.58,43,0,9.22,clear sky,0,0
96,Los Barrios,ES,2022-04-11 03:21:30,36.1848,-5.4921,60.64,88,100,16.11,overcast clouds,0,0
97,Mahenge,TZ,2022-04-11 03:25:42,-8.6833,36.7167,61.0,95,43,1.81,scattered clouds,0,0
98,Santa Cruz,BO,2022-04-11 03:25:42,-17.8,-63.1667,78.26,83,20,13.8,few clouds,0,0
99,Kapit,MY,2022-04-11 03:25:43,2.0167,112.9333,88.34,60,89,0.65,overcast clouds,0,0
100,Lebu,CL,2022-04-11 03:25:43,-37.6167,-73.65,48.36,84,4,6.33,clear sky,0,0
101,Sredniy Ikorets,RU,2022-04-11 03:25:44,51.0675,39.7584,52.23,71,98,10.6,overcast clouds,0,0
102,Alice Springs,AU,2022-04-11 03:25:19,-23.7,133.8833,92.75,21,100,12.66,overcast clouds,0,0
103,Gibara,CU,2022-04-11 03:25:44,21.1097,-76.1317,76.32,67,99,14.99,overcast clouds,0,0
104,Brorup,DK,2022-04-11 03:25:45,55.4819,9.0176,37.42,86,74,7.72,broken clouds,0,0
105,Esperance,AU,2022-04-11 03:25:45,-33.8667,121.9,69.64,80,98,12.53,overcast clouds,0,0
106,Saint George,US,2022-04-11 03:20:48,37.1041,-113.5841,63.95,11,0,5.75,clear sky,0,0
107,Mana,GF,2022-04-11 03:25:46,5.6592,-53.7767,77.54,88,100,9.46,overcast clouds,0,0
108,Villany,HU,2022-04-11 03:25:46,45.8689,18.4539,37.22,79,0,6.87,clear sky,0,0
109,Kaura Namoda,NG,2022-04-11 03:25:46,12.5898,6.5779,83.59,38,56,7.85,broken clouds,0,0
110,Tuktoyaktuk,CA,2022-04-11 03:25:47,69.4541,-133.0374,1.4,71,20,10.36,few clouds,0,0
111,Ray,IN,2022-04-11 03:25:47,23.6833,85.05,86.77,11,1,4.5,clear sky,0,0
112,Imeni Poliny Osipenko,RU,2022-04-11 03:25:48,52.4201,136.4853,30.83,97,100,10.6,light snow,0,0
113,Albany,US,2022-04-11 03:25:48,42.6001,-73.9662,38.41,69,17,11.99,few clouds,0,0
114,Bonthe,SL,2022-04-11 03:25:49,7.5264,-12.505,78.03,92,6,4.92,clear sky,0,0
115,Provideniya,RU,2022-04-11 03:25:49,64.3833,-173.3,30.36,74,0,7.0,clear sky,0,0
116,Luderitz,NA,2022-04-11 03:23:19,-26.6481,15.1594,73.26,47,1,12.44,clear sky,0,0
117,Komsomolskiy,UZ,2022-04-11 03:25:50,40.4272,71.7189,70.52,49,86,4.61,overcast clouds,0,0
118,Kieta,PG,2022-04-11 03:25:51,-6.2167,155.6333,83.88,73,100,4.0,light rain,0,0
119,Bethel,US,2022-04-11 03:25:51,41.3712,-73.414,42.89,64,0,8.05,clear sky,0,0
120,Clyde River,CA,2022-04-11 03:25:51,70.4692,-68.5914,-0.17,92,100,2.3,overcast clouds,0,0
121,Manggar,ID,2022-04-11 03:25:52,-2.8833,108.2667,84.58,70,80,4.18,broken clouds,0,0
122,Bandundu,CD,2022-04-11 03:25:52,-3.3167,17.3667,72.3,97,100,2.62,light rain,0,0
123,Intipuca,SV,2022-04-11 03:25:53,13.1969,-88.0544,84.15,62,94,2.51,overcast clouds,0,0
124,Airai,TL,2022-04-11 03:23:17,-8.9266,125.4092,76.17,37,94,3.65,overcast clouds,0,0
125,Arraial Do Cabo,BR,2022-04-11 03:25:54,-22.9661,-42.0278,75.27,80,5,2.55,clear sky,0,0
126,Mukhen,RU,2022-04-11 03:25:54,48.1,136.1,48.99,74,100,3.87,light rain,0,0
127,Bayburt,TR,2022-04-11 03:25:54,40.2589,40.2278,38.19,84,55,4.34,broken clouds,0,0
128,Bayir,TR,2022-04-11 03:25:55,37.2687,28.2167,52.32,94,21,5.32,few clouds,0,0
129,Barrow,US,2022-04-11 03:25:02,71.2906,-156.7887,5.02,78,100,20.71,light snow,0,0
130,Te Anau,NZ,2022-04-11 03:25:55,-45.4167,167.7167,53.82,84,100,9.53,overcast clouds,0,0
131,Hokitika,NZ,2022-04-11 03:25:56,-42.7167,170.9667,57.38,74,100,3.85,overcast clouds,0,0
132,Cherskiy,RU,2022-04-11 03:25:56,68.75,161.3,-2.79,79,100,8.16,overcast clouds,0,0
133,Ponta Do Sol,PT,2022-04-11 03:25:57,32.6667,-17.1,62.01,73,48,15.1,scattered clouds,0,0
134,Maceio,BR,2022-04-11 03:24:10,-9.6658,-35.7353,72.84,94,20,3.44,few clouds,0,0
135,Sitka,US,2022-04-11 03:25:58,57.0531,-135.33,46.29,31,0,16.11,clear sky,0,0
136,Alofi,NU,2022-04-11 03:25:58,-19.0595,-169.9187,84.09,74,89,4.61,overcast clouds,0,0
137,Taoudenni,ML,2022-04-11 03:25:59,22.6783,-3.9836,74.89,8,9,9.01,clear sky,0,0
138,Port Elizabeth,ZA,2022-04-11 03:25:59,-33.918,25.5701,64.69,92,0,12.66,clear sky,0,0
139,Khatanga,RU,2022-04-11 03:26:00,71.9667,102.5,7.0,90,98,4.12,overcast clouds,0,0
140,Sikonge,TZ,2022-04-11 03:26:00,-5.6333,32.7667,60.55,84,99,4.41,overcast clouds,0,0
141,Marzuq,YE,2022-04-11 03:26:01,14.4,46.4667,68.7,32,4,5.21,clear sky,0,0
142,Santo Antonio Do Leverger,BR,2022-04-11 03:26:02,-15.8656,-56.0767,79.18,75,41,4.32,scattered clouds,0,0
143,Lazaro Cardenas,MX,2022-04-11 03:21:36,17.9583,-102.2,76.24,83,100,3.58,overcast clouds,0,0
144,Bilibino,RU,2022-04-11 03:26:02,68.0546,166.4372,-1.84,84,100,18.79,overcast clouds,0,0
145,Riyadh,SA,2022-04-11 03:24:59,24.6877,46.7219,71.74,24,5,6.96,clear sky,0,0
146,Torbay,CA,2022-04-11 03:26:03,47.6666,-52.7314,32.88,94,100,9.22,fog,0,0
147,Nyurba,RU,2022-04-11 03:26:04,63.2842,118.3319,25.61,83,99,4.63,overcast clouds,0,0
148,Challapata,BO,2022-04-11 03:26:04,-18.9,-66.7667,47.44,34,47,6.02,scattered clouds,0,0
149,Kaka,TM,2022-04-11 03:26:04,37.3482,59.6143,61.18,72,0,14.79,clear sky,0,0
150,Pemba,MZ,2022-04-11 03:26:05,-12.974,40.5178,76.69,87,46,10.09,light rain,0,0
151,Saint-Augustin,CA,2022-04-11 03:26:05,51.226,-58.6502,33.13,93,100,11.21,overcast clouds,0,0
152,Castro,BR,2022-04-11 03:25:32,-24.7911,-50.0119,60.26,97,100,5.19,overcast clouds,0,0
153,Olyka,UA,2022-04-11 03:26:06,50.7186,25.8125,33.93,88,100,7.65,overcast clouds,0,0
154,Nikolskoye,RU,2022-04-11 03:26:06,59.7035,30.7861,33.8,93,3,7.9,clear sky,0,0
155,Pisco,PE,2022-04-11 03:26:07,-13.7,-76.2167,68.05,73,0,8.05,clear sky,0,0
156,Ribeira Grande,PT,2022-04-11 03:26:07,38.5167,-28.7,58.05,70,100,25.05,overcast clouds,0,0
157,Jiaocheng,CN,2022-04-11 03:26:08,24.6774,116.1389,84.85,42,0,3.76,clear sky,0,0
158,Mount Isa,AU,2022-04-11 03:26:08,-20.7333,139.5,94.77,24,75,14.97,broken clouds,0,0
159,Leningradskiy,RU,2022-04-11 03:26:09,69.3833,178.4167,1.69,89,98,5.97,overcast clouds,0,0
160,San Carlos Del Zulia,VE,2022-04-11 03:26:10,9.0,-71.9135,77.34,83,76,5.53,broken clouds,0,0
161,Bin Qirdan,TN,2022-04-11 03:26:11,33.1378,11.2197,57.92,68,5,8.01,clear sky,0,0
162,Pevek,RU,2022-04-11 03:22:50,69.7008,170.3133,-6.34,87,96,9.19,overcast clouds,0,0
163,Lata,PT,2022-04-11 03:26:11,40.1629,-8.3327,58.82,89,94,6.4,overcast clouds,0,0
164,Magway,MM,2022-04-11 03:26:12,20.15,94.9167,92.59,41,25,8.72,scattered clouds,0,0
165,Miri,MY,2022-04-11 03:26:12,4.4148,114.0089,87.94,74,40,5.75,scattered clouds,0,0
166,Tha Muang,TH,2022-04-11 03:26:13,13.9612,99.6412,93.78,44,68,5.55,broken clouds,0,0
167,Atambua,ID,2022-04-11 03:26:14,-9.1061,124.8925,83.73,53,66,1.39,broken clouds,0,0
168,Comodoro Rivadavia,AR,2022-04-11 03:26:14,-45.8667,-67.5,55.26,67,0,5.75,clear sky,0,0
169,Roald,NO,2022-04-11 03:23:12,62.5833,6.1333,40.75,93,100,16.11,mist,0,0
170,Pemangkat,ID,2022-04-11 03:26:15,1.1667,108.9667,84.88,64,51,1.5,broken clouds,0,0
171,Dabakala,CI,2022-04-11 03:26:15,8.3667,-4.4333,79.38,71,63,4.83,broken clouds,0,0
172,Dunedin,NZ,2022-04-11 03:25:19,-45.8742,170.5036,59.81,58,5,5.01,clear sky,0,0
173,Iqaluit,CA,2022-04-11 03:26:16,63.7506,-68.5145,22.73,79,100,10.36,light snow,0,0
174,Tabou,CI,2022-04-11 03:26:16,4.423,-7.3528,79.56,88,85,5.68,overcast clouds,0,0
175,Neiafu,TO,2022-04-11 03:26:17,-18.65,-173.9833,86.68,66,20,8.05,few clouds,0,0
176,Salalah,OM,2022-04-11 03:26:17,17.0151,54.0924,77.09,83,0,3.44,clear sky,0,0
177,Waipawa,NZ,2022-04-11 03:26:18,-41.4122,175.5153,61.93,65,6,20.45,clear sky,0,0
178,Isangel,VU,2022-04-11 03:22:47,-19.55,169.2667,84.43,68,7,11.83,clear sky,0,0
179,Tiarei,PF,2022-04-11 03:26:18,-17.5333,-149.3333,84.22,68,19,18.45,few clouds,0,0
180,Shimoda,JP,2022-04-11 03:26:19,34.6667,138.95,71.96,67,89,8.77,overcast clouds,0,0
181,Hambantota,LK,2022-04-11 03:26:19,6.1241,81.1185,84.54,84,20,5.75,few clouds,0,0
182,East London,ZA,2022-04-11 03:26:20,-33.0153,27.9116,63.54,94,0,5.75,clear sky,0,0
183,Ballinrobe,IE,2022-04-11 03:26:20,53.6333,-9.2333,52.21,79,100,17.47,overcast clouds,0,0
184,Necochea,AR,2022-04-11 03:26:21,-38.5473,-58.7368,62.87,98,100,5.01,moderate rain,0,0
185,Vestmannaeyjar,IS,2022-04-11 03:26:21,63.4427,-20.2734,39.29,76,100,25.52,overcast clouds,0,0
186,Vardo,NO,2022-04-11 03:26:22,70.3705,31.1107,34.72,93,100,8.63,light snow,0,0
187,Mocuba,MZ,2022-04-11 03:26:23,-16.8392,36.9856,70.02,95,64,4.54,broken clouds,0,0
188,Gasa,PS,2022-04-11 03:26:23,31.5,34.4667,59.52,85,24,5.17,few clouds,0,0
189,Coahuayana,MX,2022-04-11 03:26:24,18.7333,-103.6833,72.81,88,28,0.4,scattered clouds,0,0
190,Mackay,AU,2022-04-11 03:26:24,-21.15,149.2,82.69,78,40,18.41,scattered clouds,0,0
191,Husavik,IS,2022-04-11 03:26:25,66.0449,-17.3389,30.7,85,100,0.45,overcast clouds,0,0
192,Avera,US,2022-04-11 03:26:25,33.194,-82.5271,53.11,63,0,7.11,clear sky,0,0
193,Cochrane,CA,2022-04-11 03:24:47,51.1834,-114.4687,30.47,37,20,9.22,few clouds,0,0
194,Ostrovnoy,RU,2022-04-11 03:26:26,68.0531,39.5131,31.51,86,83,22.06,broken clouds,0,0
195,Sapa,PH,2022-04-11 03:23:16,5.1544,120.3241,83.8,70,100,7.11,light rain,0,0
196,Grindavik,IS,2022-04-11 03:26:26,63.8424,-22.4338,37.35,75,100,12.66,overcast clouds,0,0
197,Xiongzhou,CN,2022-04-11 03:26:27,25.1167,114.3,84.52,35,0,3.89,clear sky,0,0
198,Sangar,RU,2022-04-11 03:26:27,63.9242,127.4739,23.22,74,17,4.34,few clouds,0,0
199,Coquimbo,CL,2022-04-11 03:26:28,-29.9533,-71.3436,53.33,93,3,5.75,clear sky,0,0
200,Bilma,NE,2022-04-11 03:26:28,18.6853,12.9164,82.31,7,0,4.74,clear sky,0,0
201,Nacala,MZ,2022-04-11 03:26:29,-14.5428,40.6728,72.25,97,41,6.06,scattered clouds,0,0
202,Aklavik,CA,2022-04-11 03:26:30,68.2191,-135.0107,7.29,88,91,3.76,overcast clouds,0,0
203,Elat,IL,2022-04-11 03:26:30,29.5581,34.9482,67.84,56,0,6.91,clear sky,0,0
204,Gari,RU,2022-04-11 03:26:31,59.4307,62.3497,36.19,92,99,5.39,overcast clouds,0,0
205,Itarema,BR,2022-04-11 03:26:24,-2.9248,-39.9167,75.88,88,94,2.17,overcast clouds,0,0
206,Adrar,MR,2022-04-11 03:26:31,20.5022,-10.0711,75.33,8,7,10.42,clear sky,0,0
207,Talnakh,RU,2022-04-11 03:26:32,69.4865,88.3972,-0.8,93,95,7.23,overcast clouds,0,0
208,Qaanaaq,GL,2022-04-11 03:26:32,77.484,-69.3632,-8.66,71,65,7.49,broken clouds,0,0
209,Lagoa,PT,2022-04-11 03:26:33,39.05,-27.9833,56.73,65,100,28.63,overcast clouds,0,0
210,Hyvinkaa,FI,2022-04-11 03:26:34,60.6333,24.8667,34.95,95,92,7.0,overcast clouds,0,0
211,Igarka,RU,2022-04-11 03:26:34,67.4667,86.5833,1.36,94,100,6.87,overcast clouds,0,0
212,Yatou,CN,2022-04-11 03:26:35,37.15,122.3833,64.42,68,12,15.55,few clouds,0,0
213,Quelimane,MZ,2022-04-11 03:26:35,-17.8786,36.8883,76.95,88,75,3.44,broken clouds,0,0
214,Kaitangata,NZ,2022-04-11 03:26:36,-46.2817,169.8464,64.31,44,27,7.16,scattered clouds,0,0
215,Fort Nelson,CA,2022-04-11 03:22:33,58.8053,-122.7002,24.39,58,75,14.97,broken clouds,0,0
216,Nanortalik,GL,2022-04-11 03:26:36,60.1432,-45.2371,29.73,72,88,3.24,overcast clouds,0,0
217,Hobyo,SO,2022-04-11 03:26:37,5.3505,48.5268,82.24,71,50,8.97,scattered clouds,0,0
218,Namibe,AO,2022-04-11 03:26:37,-15.1961,12.1522,70.65,81,55,6.51,broken clouds,0,0
219,Oudtshoorn,ZA,2022-04-11 03:26:38,-33.5907,22.2014,53.96,74,0,3.96,clear sky,0,0
220,Katsuura,JP,2022-04-11 03:26:41,35.1333,140.3,66.07,77,100,13.6,overcast clouds,0,0
221,Praya,CV,2022-04-11 03:26:41,14.9215,-23.5087,68.52,82,32,15.55,scattered clouds,0,0
222,Nador,MA,2022-04-11 03:26:42,35.174,-2.9287,61.05,88,100,5.75,overcast clouds,0,0
223,Lithakia,GR,2022-04-11 03:26:42,37.7167,20.8333,52.97,60,51,27.51,broken clouds,0,0
224,Fernandez,AR,2022-04-11 03:26:43,-27.9204,-63.8935,72.97,94,98,7.56,overcast clouds,0,0
225,Longyearbyen,SJ,2022-04-11 03:26:43,78.2186,15.6401,10.24,56,0,17.27,clear sky,0,0
226,Ponta Delgada,PT,2022-04-11 03:26:44,37.7333,-25.6667,57.92,62,75,13.8,broken clouds,0,0
227,Saint-Philippe,RE,2022-04-11 03:26:44,-21.3585,55.7679,76.59,80,54,14.23,light rain,0,0
228,Manokwari,ID,2022-04-11 03:26:45,-0.8667,134.0833,80.65,79,100,11.74,overcast clouds,0,0
229,High Level,CA,2022-04-11 03:26:45,58.5169,-117.136,21.31,68,75,16.11,broken clouds,0,0
230,Lerwick,GB,2022-04-11 03:26:46,60.1545,-1.1494,33.8,65,100,1.74,overcast clouds,0,0
231,Ouallam,NE,2022-04-11 03:26:47,14.3188,2.0866,90.81,21,53,7.31,broken clouds,0,0
232,Georgetown,MY,2022-04-11 03:26:35,5.4112,100.3354,87.75,75,20,4.61,few clouds,0,0
233,Saldanha,ZA,2022-04-11 03:26:47,-33.0117,17.9442,62.65,47,16,7.47,few clouds,0,0
234,Terme,TR,2022-04-11 03:26:47,41.2092,36.9739,46.33,67,2,5.26,clear sky,0,0
235,Namatanai,PG,2022-04-11 03:26:48,-3.6667,152.4333,85.62,65,98,5.93,overcast clouds,0,0
236,Mareeba,AU,2022-04-11 03:26:49,-17.0,145.4333,84.67,80,44,8.77,scattered clouds,0,0
237,Laguna,US,2022-04-11 03:26:49,38.421,-121.4238,65.32,55,0,9.22,clear sky,0,0
238,Jalpan,MX,2022-04-11 03:26:50,21.2333,-99.4833,76.01,50,13,4.07,few clouds,0,0
239,Souillac,MU,2022-04-11 03:26:51,-20.5167,57.5167,77.38,73,40,10.36,scattered clouds,0,0
240,Sampit,ID,2022-04-11 03:26:51,-2.5333,112.95,83.97,73,97,0.76,overcast clouds,0,0
241,Arkalgud,IN,2022-04-11 03:26:51,12.765,76.0569,78.31,47,99,3.85,overcast clouds,0,0
242,Porto Novo,BJ,2022-04-11 03:26:52,6.4965,2.6036,80.42,81,64,6.53,broken clouds,0,0
243,Shamgarh,IN,2022-04-11 03:26:53,24.1833,75.6333,89.26,22,28,10.45,scattered clouds,0,0
244,Vanimo,PG,2022-04-11 03:26:53,-2.6741,141.3028,86.45,62,11,9.66,few clouds,0,0
245,Marsa Matruh,EG,2022-04-11 03:26:54,31.3525,27.2453,61.03,71,0,10.47,clear sky,0,0
246,Aksarka,RU,2022-04-11 03:26:54,66.5606,67.7975,33.8,100,100,11.27,overcast clouds,0,0
247,Leh,IN,2022-04-11 03:26:55,34.1667,77.5833,35.42,49,55,2.91,broken clouds,0,0
248,Bambous Virieux,MU,2022-04-11 03:26:55,-20.3428,57.7575,77.25,73,40,10.36,scattered clouds,0,0
249,Superior,US,2022-04-11 03:23:06,46.7208,-92.1041,45.57,63,100,13.8,overcast clouds,0,0
250,Ipameri,BR,2022-04-11 03:26:56,-17.7219,-48.1597,72.39,75,78,2.28,broken clouds,0,0
251,Labuhan,ID,2022-04-11 03:26:56,-6.8844,112.2051,84.45,70,88,3.58,overcast clouds,0,0
252,Mongo,TD,2022-04-11 03:26:57,12.1844,18.693,84.25,43,90,6.08,overcast clouds,0,0
253,Tres Lagoas,BR,2022-04-11 03:26:57,-20.7511,-51.6783,76.1,72,50,3.65,scattered clouds,0,0
254,Kotka,FI,2022-04-11 03:26:58,60.4664,26.9458,33.06,88,59,19.35,broken clouds,0,0
255,Maldonado,UY,2022-04-11 03:22:04,-34.6667,-54.9167,69.19,95,100,10.65,overcast clouds,0,0
256,Gotsu,JP,2022-04-11 03:26:59,35.0,132.2167,70.56,47,93,4.61,light rain,0,0
257,Zeya,RU,2022-04-11 03:26:59,53.75,127.2667,36.27,34,100,7.54,overcast clouds,0,0
258,Narsaq,GL,2022-04-11 03:27:00,60.9167,-46.05,30.42,57,98,3.67,overcast clouds,0,0
259,Severo-Kurilsk,RU,2022-04-11 03:27:00,50.6789,156.125,31.71,77,89,17.52,overcast clouds,0,0
260,Victoria,HK,2022-04-11 03:26:42,22.2855,114.1577,83.97,75,39,8.01,scattered clouds,0,0
261,Kampong Chhnang,KH,2022-04-11 03:27:01,12.1667,104.55,89.55,52,97,6.42,overcast clouds,0,0
262,Maneadero,MX,2022-04-11 03:27:02,31.7167,-116.5667,61.11,78,16,5.01,few clouds,0,0
263,New Norfolk,AU,2022-04-11 03:27:03,-42.7826,147.0587,62.65,36,77,4.0,broken clouds,0,0
264,Juegang,CN,2022-04-11 03:27:03,32.3174,121.1855,76.95,55,0,4.5,clear sky,0,0
265,Palmer,US,2022-04-11 03:27:03,42.1584,-72.3287,41.41,71,20,10.36,few clouds,0,0
266,Barabash,RU,2022-04-11 03:27:04,43.2,131.4833,57.58,57,58,6.76,broken clouds,0,0
267,Alyangula,AU,2022-04-11 03:27:04,-13.8483,136.4192,94.87,49,40,11.5,scattered clouds,0,0
268,Slave Lake,CA,2022-04-11 03:27:05,55.2834,-114.769,26.58,59,0,11.5,clear sky,0,0
269,Kavieng,PG,2022-04-11 03:27:05,-2.5744,150.7967,85.14,67,54,8.84,broken clouds,0,0
270,Avarua,CK,2022-04-11 03:27:06,-21.2078,-159.775,80.65,78,20,8.05,few clouds,0,0
271,Ilulissat,GL,2022-04-11 03:27:07,69.2167,-51.1,19.42,68,100,3.44,overcast clouds,0,0
272,Llandrindod Wells,GB,2022-04-11 03:27:07,52.2416,-3.3787,41.94,82,100,8.14,overcast clouds,0,0
273,Buala,SB,2022-04-11 03:27:08,-8.145,159.5921,84.45,70,76,4.79,light rain,0,0
274,Paravur,IN,2022-04-11 03:27:08,8.7833,76.7,82.42,83,74,5.95,broken clouds,0,0
275,Kahului,US,2022-04-11 03:26:32,20.8947,-156.47,84.22,62,40,19.57,scattered clouds,0,0
276,San Ramon,US,2022-04-11 03:26:39,37.7799,-121.978,56.28,63,0,12.66,clear sky,0,0
277,Pangnirtung,CA,2022-04-11 03:27:09,66.1451,-65.7125,19.36,92,100,4.76,overcast clouds,0,0
278,Port Alfred,ZA,2022-04-11 03:27:09,-33.5906,26.891,65.17,88,91,1.99,overcast clouds,0,0
279,Tenenkou,ML,2022-04-11 03:27:10,14.4572,-4.9169,89.22,10,69,8.01,broken clouds,0,0
280,Camacha,PT,2022-04-11 03:27:10,33.0833,-16.3333,58.42,77,75,17.27,broken clouds,0,0
281,Mackenzie,CA,2022-04-11 03:25:06,55.2999,-123.1698,34.02,40,0,3.44,clear sky,0,0
282,Minab,IR,2022-04-11 03:27:11,27.1467,57.0801,78.12,61,0,2.8,clear sky,0,0
283,Chuy,UY,2022-04-11 03:27:11,-33.6971,-53.4616,68.74,89,100,11.74,overcast clouds,0,0
284,Lompoc,US,2022-04-11 03:27:12,34.6391,-120.4579,54.93,73,0,18.41,haze,0,0
285,Anadyr,RU,2022-04-11 03:27:13,64.75,177.4833,21.7,93,100,11.18,light snow,0,0
286,Keti Bandar,PK,2022-04-11 03:24:08,24.1447,67.4497,82.17,68,87,13.35,overcast clouds,0,0
287,Pecos,US,2022-04-11 03:27:13,31.4229,-103.4932,77.86,17,0,8.05,clear sky,0,0
288,Qaqortoq,GL,2022-04-11 03:27:14,60.7167,-46.0333,27.66,66,98,1.21,overcast clouds,0,0
289,De-Kastri,RU,2022-04-11 03:27:14,51.4667,140.7833,31.62,94,100,12.17,snow,0,0
290,Berlevag,NO,2022-04-11 03:27:15,70.8578,29.0864,33.8,100,100,28.14,snow,0,0
291,Ossora,RU,2022-04-11 03:27:15,59.2353,163.0719,28.58,70,96,11.79,overcast clouds,0,0
292,Ahuimanu,US,2022-04-11 03:27:16,21.4447,-157.8378,82.11,72,75,17.27,broken clouds,0,0
293,Panyutyne,UA,2022-04-11 03:27:16,48.9333,36.2833,50.23,77,98,8.28,overcast clouds,0,0
294,Altamira,BR,2022-04-11 03:27:16,-3.2033,-52.2064,72.84,99,100,2.82,overcast clouds,0,0
295,Cidreira,BR,2022-04-11 03:27:17,-30.1811,-50.2056,71.83,88,100,20.49,overcast clouds,0,0
296,Sechura,PE,2022-04-11 03:27:17,-5.5569,-80.8222,71.46,78,100,13.62,overcast clouds,0,0
297,Tayoltita,MX,2022-04-11 03:27:17,24.0833,-105.9333,61.52,70,1,0.76,clear sky,0,0
298,Faanui,PF,2022-04-11 03:27:18,-16.4833,-151.75,81.64,75,9,15.46,clear sky,0,0
299,Dhidhdhoo,MV,2022-04-11 03:27:18,6.8833,73.1,84.31,72,87,10.33,overcast clouds,0,0
300,Semme,FR,2022-04-11 03:27:19,46.1963,1.5007,50.41,58,72,5.32,broken clouds,0,0
301,Minot,US,2022-04-11 03:23:01,48.2325,-101.2963,35.82,51,0,6.91,clear sky,0,0
302,Yumen,CN,2022-04-11 03:27:20,40.2833,97.2,48.43,28,100,7.49,overcast clouds,0,0
303,Talara,PE,2022-04-11 03:27:20,-4.5772,-81.2719,70.45,85,98,11.88,overcast clouds,0,0
304,Dzerzhinsk,RU,2022-04-11 03:27:21,56.2389,43.4631,46.22,93,40,4.47,scattered clouds,0,0
305,Inirida,CO,2022-04-11 03:27:22,3.8653,-67.9239,73.99,95,99,1.9,overcast clouds,0,0
306,Seymchan,RU,2022-04-11 03:27:22,62.8833,152.4333,2.26,61,78,1.7,broken clouds,0,0
307,Omboue,GA,2022-04-11 03:27:22,-1.5746,9.2618,77.11,91,14,4.68,light rain,0,0
308,Ahipara,NZ,2022-04-11 03:27:23,-35.1667,173.1667,69.64,62,100,10.8,overcast clouds,0,0
309,Mayo,US,2022-04-11 03:27:23,38.8876,-76.5119,44.55,71,0,1.01,clear sky,0,0
310,Pundaguitan,PH,2022-04-11 03:27:24,6.3711,126.1689,84.02,69,87,7.2,overcast clouds,0,0
311,Dunda,TZ,2022-04-11 03:27:25,-8.1167,34.25,60.57,97,65,2.55,broken clouds,0,0
312,Calvinia,ZA,2022-04-11 03:27:25,-31.4707,19.776,58.24,70,0,6.22,clear sky,0,0
313,Kindu,CD,2022-04-11 03:27:26,-2.95,25.95,69.21,100,100,2.84,light rain,0,0
314,Rawson,AR,2022-04-11 03:27:26,-43.3002,-65.1023,53.82,66,62,7.16,broken clouds,0,0
315,Dengzhou,CN,2022-04-11 03:27:27,37.8086,120.7508,74.57,46,52,15.37,broken clouds,0,0
316,Savinka,RU,2022-04-11 03:27:27,50.0785,47.0994,49.08,86,13,6.82,few clouds,0,0
317,Malayal,PH,2022-04-11 03:27:28,7.208,121.942,78.6,89,100,15.82,moderate rain,0,0
318,Lavrentiya,RU,2022-04-11 03:27:29,65.5833,-171.0,29.03,79,100,8.08,overcast clouds,0,0
319,Lehrte,DE,2022-04-11 03:27:29,52.3833,9.9667,38.05,87,41,4.68,scattered clouds,0,0
320,Fairview,US,2022-04-11 03:22:35,40.8126,-73.999,44.55,49,100,23.02,overcast clouds,0,0
321,Novaya Ladoga,RU,2022-04-11 03:27:30,60.1025,32.3019,31.5,92,1,9.44,clear sky,0,0
322,Bundaberg,AU,2022-04-11 03:27:30,-24.85,152.35,84.22,65,75,10.36,broken clouds,0,0
323,Palembang,ID,2022-04-11 03:27:31,-2.9167,104.7458,86.09,70,40,4.61,scattered clouds,0,0
324,Yanam,IN,2022-04-11 03:27:31,16.7333,82.2167,88.14,61,99,4.83,overcast clouds,0,0
325,Pascagoula,US,2022-04-11 03:27:32,30.3658,-88.5561,69.85,77,0,6.91,clear sky,0,0
326,Ust-Nera,RU,2022-04-11 03:27:33,64.5667,143.2,8.1,77,17,5.14,few clouds,0,0
327,Pronsk,RU,2022-04-11 03:27:33,54.1048,39.6092,43.0,99,99,6.71,overcast clouds,0,0
328,Phan Thiet,VN,2022-04-11 03:27:34,10.9333,108.1,86.43,56,43,5.53,scattered clouds,0,0
329,Pyshchug,RU,2022-04-11 03:27:34,58.8873,45.7134,38.37,99,100,7.38,overcast clouds,0,0
330,Majene,ID,2022-04-11 03:27:35,-3.5403,118.9707,84.16,65,63,7.31,broken clouds,0,0
331,Bexhill,AU,2022-04-11 03:27:35,-28.7667,153.35,80.64,69,4,3.0,clear sky,0,0
332,Kamaishi,JP,2022-04-11 03:27:36,39.2667,141.8833,66.18,43,53,9.82,broken clouds,0,0
333,Coihaique,CL,2022-04-11 03:25:08,-45.5752,-72.0662,48.81,81,100,2.3,overcast clouds,0,0
334,Fairbanks,US,2022-04-11 03:25:33,64.8378,-147.7164,28.74,68,40,4.61,scattered clouds,0,0
335,Gap,FR,2022-04-11 03:23:00,44.6667,6.0,24.84,70,97,5.12,overcast clouds,0,0
336,Tatarsk,RU,2022-04-11 03:27:36,55.219,75.9828,35.31,63,13,8.97,few clouds,0,0
337,Prado,BR,2022-04-11 03:27:37,-17.3411,-39.2208,76.68,86,14,4.81,few clouds,0,0
338,Wanaka,NZ,2022-04-11 03:27:37,-44.7,169.15,61.11,45,63,5.01,light rain,0,0
339,Mandalgovi,MN,2022-04-11 03:27:38,45.7625,106.2708,29.21,61,75,8.46,broken clouds,0,0
340,Bubaque,GW,2022-04-11 03:27:38,11.2833,-15.8333,75.67,69,6,10.74,clear sky,0,0
341,Antofagasta,CL,2022-04-11 03:27:39,-23.65,-70.4,60.08,84,45,6.6,scattered clouds,0,0
342,Halvad,IN,2022-04-11 03:27:39,23.0167,71.1833,83.52,51,31,11.05,scattered clouds,0,0
343,Petrivka,UA,2022-04-11 03:27:40,46.9695,30.9591,41.81,81,100,18.32,overcast clouds,0,0
344,Biak,ID,2022-04-11 03:27:40,-0.9131,122.8766,83.79,65,67,7.58,broken clouds,0,0
345,Magistralnyy,RU,2022-04-11 03:27:41,56.1725,107.4458,35.28,61,99,4.27,overcast clouds,0,0
346,Hami,CN,2022-04-11 03:27:42,42.8,93.45,59.07,16,91,6.13,overcast clouds,0,0
347,Giyani,ZA,2022-04-11 03:27:42,-23.3025,30.7187,66.22,86,99,7.54,overcast clouds,0,0
348,Tsaratanana,MG,2022-04-11 03:27:42,-16.7833,47.65,69.04,82,9,12.03,clear sky,0,0
349,Cockburn Town,TC,2022-04-11 03:25:58,21.4612,-71.1419,77.58,80,90,22.44,overcast clouds,0,0
350,Vila Velha,BR,2022-04-11 03:27:43,-20.3297,-40.2925,78.75,84,20,9.22,few clouds,0,0
351,Puerto Colombia,CO,2022-04-11 03:27:43,10.9878,-74.9547,80.69,83,100,27.63,overcast clouds,0,0
352,Pasighat,IN,2022-04-11 03:25:18,28.0667,95.3333,68.34,95,100,1.74,overcast clouds,0,0
353,Deputatskiy,RU,2022-04-11 03:27:44,69.3,139.9,6.3,84,99,3.74,overcast clouds,0,0
354,Freeport,US,2022-04-11 03:23:07,40.6576,-73.5832,45.25,53,0,23.02,clear sky,0,0
355,Tabriz,IR,2022-04-11 03:25:04,38.08,46.2919,44.06,76,75,6.91,broken clouds,0,0
356,Rio Grande,BR,2022-04-11 03:27:45,-32.035,-52.0986,71.94,89,100,17.11,overcast clouds,0,0
357,Flinders,AU,2022-04-11 03:27:45,-34.5833,150.8552,79.88,56,2,9.66,clear sky,0,0
358,Nouakchott,MR,2022-04-11 03:27:46,18.0858,-15.9785,64.33,88,59,16.78,broken clouds,0,0
359,Bairiki,KI,2022-04-11 03:27:46,1.3292,172.9752,86.0,74,20,8.05,few clouds,0,0
360,Hailar,CN,2022-04-11 03:27:46,49.2,119.7,37.76,37,100,8.05,overcast clouds,0,0
361,Norsup,VU,2022-04-11 03:27:48,-16.0667,167.3833,85.17,70,15,6.35,few clouds,0,0
362,Arkhangelsk,RU,2022-04-11 03:27:48,64.5401,40.5433,32.11,92,0,8.95,clear sky,0,0
363,San Jose,US,2022-04-11 03:25:15,37.3394,-121.895,56.08,60,40,14.97,scattered clouds,0,0
364,Ouegoa,NC,2022-04-11 03:27:49,-20.35,164.4333,80.33,76,95,6.6,overcast clouds,0,0
365,Tuatapere,NZ,2022-04-11 03:27:49,-46.1333,167.6833,62.22,62,100,11.39,overcast clouds,0,0
366,Santa Maria,BR,2022-04-11 03:24:01,-29.6842,-53.8069,67.3,94,75,1.14,broken clouds,0,0
367,Mae Tha,TH,2022-04-11 03:27:50,18.4646,99.1403,89.19,35,48,2.01,scattered clouds,0,0
368,Caravelas,BR,2022-04-11 03:27:50,-17.7125,-39.2481,76.17,88,9,3.76,clear sky,0,0
369,Bethanien,NA,2022-04-11 03:27:51,-26.502,17.1583,60.24,68,0,6.49,clear sky,0,0
370,Vostok,RU,2022-04-11 03:27:51,46.4856,135.8833,52.79,71,100,3.47,light rain,0,0
371,Limni,GR,2022-04-11 03:27:52,38.7667,23.3167,46.63,60,57,13.65,broken clouds,0,0
372,Mosquera,CO,2022-04-11 03:27:53,4.7059,-74.2302,53.69,94,75,0.0,broken clouds,0,0
373,Nizwa,OM,2022-04-11 03:27:53,22.9333,57.5333,84.69,12,0,2.68,clear sky,0,0
374,Vozhega,RU,2022-04-11 03:27:54,60.4725,40.2213,31.1,96,100,4.52,overcast clouds,0,0
375,Bathsheba,BB,2022-04-11 03:27:54,13.2167,-59.5167,79.41,73,40,17.27,scattered clouds,0,0
376,Kavaratti,IN,2022-04-11 03:27:55,10.5669,72.642,83.48,75,99,8.39,overcast clouds,0,0
377,Viamao,BR,2022-04-11 03:27:55,-30.0811,-51.0233,73.67,92,0,8.05,clear sky,0,0
378,Lensk,RU,2022-04-11 03:27:56,60.7253,114.9278,31.66,83,99,2.95,overcast clouds,0,0
379,Colares,PT,2022-04-11 03:27:56,38.7992,-9.4469,59.32,80,96,15.99,overcast clouds,0,0
380,Balancan,MX,2022-04-11 03:27:57,17.8,-91.5333,76.51,67,3,12.41,clear sky,0,0
381,Dali,CN,2022-04-11 03:27:57,25.7,100.1833,68.04,45,8,5.7,clear sky,0,0
382,Obidos,BR,2022-04-11 03:27:58,-1.9175,-55.5181,73.98,96,100,3.33,overcast clouds,0,0
383,Pacific Grove,US,2022-04-11 03:27:58,36.6177,-121.9166,54.43,78,40,8.99,scattered clouds,0,0
384,Tobermory,CA,2022-04-11 03:27:59,45.2501,-81.6665,34.23,79,99,11.72,overcast clouds,0,0
385,San Patricio,US,2022-04-11 03:28:00,28.017,-97.5169,74.16,81,100,22.59,overcast clouds,0,0
386,Waldoboro,US,2022-04-11 03:28:00,44.0954,-69.3756,44.15,71,21,11.88,few clouds,0,0
387,Petrokhorion,GR,2022-04-11 03:28:01,41.1167,24.8333,49.93,80,100,2.13,overcast clouds,0,0
388,Vangaindrano,MG,2022-04-11 03:28:01,-23.35,47.6,72.39,90,77,6.51,moderate rain,0,0
389,Chimoio,MZ,2022-04-11 03:28:02,-19.1164,33.4833,62.04,98,99,3.78,overcast clouds,0,0
390,Ganzhou,CN,2022-04-11 03:28:03,28.8184,115.4327,83.64,44,0,6.2,clear sky,0,0
391,Lorengau,PG,2022-04-11 03:28:03,-2.0226,147.2712,84.76,74,72,10.04,broken clouds,0,0
392,Yar-Sale,RU,2022-04-11 03:28:04,66.8333,70.8333,33.8,100,100,11.14,overcast clouds,0,0
393,Alihe,CN,2022-04-11 03:28:05,50.5667,123.7167,38.43,53,98,8.34,overcast clouds,0,0
394,Baruun-Urt,MN,2022-04-11 03:28:05,46.6806,113.2792,37.36,33,100,16.4,overcast clouds,0,0
395,Mayya,RU,2022-04-11 03:28:05,61.7333,130.2811,25.92,66,11,6.35,few clouds,0,0
396,Las Vegas,US,2022-04-11 03:28:06,36.175,-115.1372,70.48,13,0,5.75,clear sky,0,0
397,Cap-Aux-Meules,CA,2022-04-11 03:28:07,47.3821,-61.8597,32.02,100,100,18.41,overcast clouds,0,0
398,Sarkand,KZ,2022-04-11 03:28:07,45.41,79.9186,55.67,45,100,4.76,overcast clouds,0,0
399,Beihai,CN,2022-04-11 03:28:08,21.4833,109.1,75.83,75,1,6.35,clear sky,0,0
400,Shunyi,CN,2022-04-11 03:28:09,40.125,116.6453,75.15,57,100,2.24,haze,0,0
401,Kenai,US,2022-04-11 03:28:09,60.5544,-151.2583,42.89,52,0,8.05,clear sky,0,0
402,Yulara,AU,2022-04-11 03:28:10,-25.2406,130.9889,93.04,12,1,9.22,clear sky,0,0
403,Otane,NZ,2022-04-11 03:28:11,-39.8833,176.6333,63.01,54,1,2.33,clear sky,0,0
404,La Joya,MX,2022-04-11 03:28:11,18.6667,-99.4667,82.38,40,98,5.46,overcast clouds,0,0
405,Ati,TD,2022-04-11 03:28:12,13.2154,18.3353,82.13,38,58,7.9,broken clouds,0,0
406,Chapadinha,BR,2022-04-11 03:28:12,-3.7417,-43.3603,71.56,99,100,2.24,light rain,0,0
407,Pitimbu,BR,2022-04-11 03:28:13,-7.4706,-34.8086,77.59,74,14,9.57,few clouds,0,0
408,Lakatoro,VU,2022-04-11 03:28:13,-16.0999,167.4164,85.24,70,14,6.22,few clouds,0,0
409,Haines Junction,CA,2022-04-11 03:28:14,60.7522,-137.5108,30.15,40,97,9.22,overcast clouds,0,0
410,Mangrol,IN,2022-04-11 03:28:14,21.1167,70.1167,82.9,66,47,6.29,scattered clouds,0,0
411,Prince Rupert,CA,2022-04-11 03:28:15,54.3161,-130.3201,44.69,70,0,9.22,clear sky,0,0
412,Cervo,ES,2022-04-11 03:28:15,43.6702,-7.4101,52.34,79,9,8.21,clear sky,0,0
413,Nizhniy Kuranakh,RU,2022-04-11 03:28:16,58.8353,125.4869,28.2,75,100,5.82,light snow,0,0
414,Quzhou,CN,2022-04-11 03:28:17,28.9594,118.8686,81.9,48,1,1.28,clear sky,0,0
415,Sahbuz,AZ,2022-04-11 03:28:17,39.4072,45.5739,40.6,52,1,1.25,clear sky,0,0
416,Siocon,PH,2022-04-11 03:28:17,7.7061,122.1353,79.56,89,100,8.77,light rain,0,0
417,Qinzhou,CN,2022-04-11 03:28:18,21.95,108.6167,80.42,56,2,7.27,clear sky,0,0
418,Brooks,CA,2022-04-11 03:25:16,50.5834,-111.8851,31.98,33,100,9.22,overcast clouds,0,0
419,Ivanivka,UA,2022-04-11 03:28:19,46.7208,34.553,49.86,83,74,4.43,broken clouds,0,0
420,Spirit River,CA,2022-04-11 03:28:19,55.7833,-118.8361,30.63,53,60,12.3,broken clouds,0,0
421,Neyshabur,IR,2022-04-11 03:28:20,36.2133,58.7958,57.92,57,0,3.11,clear sky,0,0
422,Matara,LK,2022-04-11 03:28:21,5.9485,80.5353,84.22,73,100,8.16,overcast clouds,0,0
423,Kondinskoye,RU,2022-04-11 03:28:21,59.6481,67.41,32.56,86,100,8.23,overcast clouds,0,0
424,Houma,US,2022-04-11 03:28:22,29.5958,-90.7195,69.8,84,0,10.36,clear sky,0,0
425,Gander,CA,2022-04-11 03:23:44,48.9682,-54.5906,28.53,100,100,15.01,overcast clouds,0,0
426,Naze,JP,2022-04-11 03:28:22,28.3667,129.4833,72.52,83,65,11.34,broken clouds,0,0
427,Firminopolis,BR,2022-04-11 03:28:23,-16.5819,-50.305,70.14,84,53,2.17,broken clouds,0,0
428,Asau,RO,2022-04-11 03:28:23,46.4333,26.4,38.32,80,100,6.93,overcast clouds,0,0
429,Klaksvik,FO,2022-04-11 03:28:24,62.2266,-6.589,31.12,67,100,11.23,overcast clouds,0,0
430,Sioux Lookout,CA,2022-04-11 03:28:24,50.1001,-91.917,37.47,81,100,3.44,overcast clouds,0,0
431,Muros,ES,2022-04-11 03:28:25,42.7762,-9.0603,54.84,90,97,20.15,overcast clouds,0,0
432,Dimona,IL,2022-04-11 03:28:25,31.0667,35.0333,57.58,54,3,3.69,clear sky,0,0
433,Cap Malheureux,MU,2022-04-11 03:28:26,-19.9842,57.6142,75.47,81,25,1.01,scattered clouds,0,0
434,Tuapse,RU,2022-04-11 03:28:26,44.1125,39.0742,53.8,67,8,5.44,clear sky,0,0
435,Atar,MR,2022-04-11 03:28:27,20.5169,-13.0499,75.02,8,20,3.42,few clouds,0,0
436,Mianwali,PK,2022-04-11 03:28:27,32.5741,71.5264,89.06,15,100,3.42,overcast clouds,0,0
437,Conceicao Do Araguaia,BR,2022-04-11 03:28:28,-8.2578,-49.2647,73.29,97,93,4.47,overcast clouds,0,0
438,Imbituba,BR,2022-04-11 03:26:02,-28.24,-48.6703,75.81,93,96,8.75,overcast clouds,0,0
439,Sawakin,SD,2022-04-11 03:28:29,19.1059,37.3321,77.41,77,0,5.23,clear sky,0,0
440,Raga,SS,2022-04-11 03:28:29,8.4596,25.678,74.39,75,100,5.39,overcast clouds,0,0
441,Kruisfontein,ZA,2022-04-11 03:28:30,-34.0033,24.7314,59.88,91,78,4.29,broken clouds,0,0
442,Sao Filipe,CV,2022-04-11 03:28:30,14.8961,-24.4956,70.95,78,79,11.74,broken clouds,0,0
443,Sistranda,NO,2022-04-11 03:28:31,63.7256,8.834,37.36,79,100,34.96,overcast clouds,0,0
444,Porto Velho,BR,2022-04-11 03:28:33,-8.7619,-63.9039,75.25,94,0,0.0,clear sky,0,0
445,Okha,RU,2022-04-11 03:28:33,53.5739,142.9478,30.72,78,100,16.46,overcast clouds,0,0
446,Biankouma,CI,2022-04-11 03:28:33,7.7391,-7.6138,70.32,95,92,2.93,overcast clouds,0,0
447,Viedma,AR,2022-04-11 03:28:34,-40.8135,-62.9967,55.62,56,13,6.73,few clouds,0,0
448,La Asuncion,VE,2022-04-11 03:25:20,11.0333,-63.8628,78.53,89,93,16.11,overcast clouds,0,0
449,Roebourne,AU,2022-04-11 03:28:35,-20.7833,117.1333,92.23,24,0,3.98,clear sky,0,0
450,Kungurtug,RU,2022-04-11 03:28:36,50.5994,97.5228,25.59,56,100,1.39,overcast clouds,0,0
451,Morehead,US,2022-04-11 03:28:36,37.2711,-87.1764,65.95,53,0,9.22,clear sky,0,0
452,Padang,ID,2022-04-11 03:28:37,-0.9492,100.3543,84.25,65,43,3.74,scattered clouds,0,0
453,San Cristobal,VE,2022-04-11 03:28:37,7.7669,-72.225,73.58,63,67,1.25,broken clouds,0,0
454,Bar Harbor,US,2022-04-11 03:28:37,44.3876,-68.2039,44.28,73,20,11.99,few clouds,0,0
455,Bonavista,CA,2022-04-11 03:28:38,48.6499,-53.1147,31.42,98,100,17.07,snow,0,0
456,Port Hedland,AU,2022-04-11 03:28:38,-20.3167,118.5667,98.65,20,0,3.44,clear sky,0,0
457,Samus,RU,2022-04-11 03:28:39,56.7475,84.6992,26.96,72,48,3.56,scattered clouds,0,0
458,Mustvee,EE,2022-04-11 03:28:39,58.8486,26.9397,31.66,94,9,9.53,clear sky,0,0
459,Petropavlovsk-Kamchatskiy,RU,2022-04-11 03:28:40,53.0452,158.6483,37.99,48,75,15.66,broken clouds,0,0
460,Koutsouras,GR,2022-04-11 03:28:41,35.0339,25.9469,59.11,40,1,6.55,clear sky,0,0
461,Sorland,NO,2022-04-11 03:28:41,67.667,12.6934,38.57,62,8,10.92,clear sky,0,0
462,Bandarbeyla,SO,2022-04-11 03:28:41,9.4942,50.8122,78.26,82,5,2.95,clear sky,0,0
463,Porciuncula,BR,2022-04-11 03:28:42,-20.9628,-42.0408,69.53,97,18,2.71,few clouds,0,0
464,Panzhihua,CN,2022-04-11 03:28:43,26.5851,101.7128,78.15,44,10,2.04,clear sky,0,0
465,Alice Town,BS,2022-04-11 03:28:43,25.7167,-79.3,71.17,61,1,14.88,clear sky,0,0
466,Inhambane,MZ,2022-04-11 03:28:44,-23.865,35.3833,76.26,86,100,11.97,light rain,0,0
467,Purranque,CL,2022-04-11 03:23:54,-40.9167,-73.1667,42.28,98,8,0.87,clear sky,0,0
468,Praia Da Vitoria,PT,2022-04-11 03:24:13,38.7333,-27.0667,57.45,67,75,26.11,broken clouds,0,0
469,Aksu,CN,2022-04-11 03:28:45,41.1231,80.2644,65.88,29,7,9.93,clear sky,0,0
470,Kualakapuas,ID,2022-04-11 03:28:45,-3.0091,114.3876,89.42,59,95,2.33,overcast clouds,0,0
471,Livingstone,ZM,2022-04-11 03:28:45,-17.8419,25.8543,61.75,96,99,3.71,overcast clouds,0,0
472,Lebyazhye,RU,2022-04-11 03:28:46,55.2689,66.4947,40.33,64,100,13.67,overcast clouds,0,0
473,Alibag,IN,2022-04-11 03:28:46,18.6411,72.8792,84.27,69,100,2.19,overcast clouds,0,0
474,Lakhdenpokhya,RU,2022-04-11 03:28:47,61.5198,30.1992,32.29,87,98,13.47,overcast clouds,0,0
475,Korla,CN,2022-04-11 03:28:47,41.7597,86.1469,59.59,33,27,11.54,scattered clouds,0,0
476,Kudal,IN,2022-04-11 03:28:48,16.0333,73.6833,82.54,69,91,3.24,overcast clouds,0,0
477,Svetlyy,RU,2022-04-11 03:28:48,54.675,20.1347,35.65,87,5,10.69,clear sky,0,0
478,Urumqi,CN,2022-04-11 03:28:49,43.801,87.6005,59.95,34,0,4.47,clear sky,0,0
479,Ust-Charyshskaya Pristan,RU,2022-04-11 03:28:50,52.3934,83.6635,35.42,56,6,9.44,clear sky,0,0
480,Hasaki,JP,2022-04-11 03:28:50,35.7333,140.8333,73.8,76,99,16.22,overcast clouds,0,0
481,Axim,GH,2022-04-11 03:28:51,4.8699,-2.2405,79.9,87,66,4.16,broken clouds,0,0
482,Khatra,IN,2022-04-11 03:28:52,22.9833,86.85,93.33,27,1,7.99,clear sky,0,0
483,Nicoya,CR,2022-04-11 03:28:52,10.1483,-85.452,79.29,68,47,9.84,scattered clouds,0,0
484,Winsum,NL,2022-04-11 03:28:53,53.33,6.5208,36.99,86,98,4.7,overcast clouds,0,0
485,Kokopo,PG,2022-04-11 03:28:53,-4.352,152.2633,84.96,64,71,4.03,broken clouds,0,0
486,Taiyuan,CN,2022-04-11 03:28:15,37.8694,112.5603,78.66,11,0,15.66,clear sky,0,0
487,Sao Joao Da Barra,BR,2022-04-11 03:28:54,-21.6403,-41.0511,74.23,89,11,6.78,few clouds,0,0
488,Oksfjord,NO,2022-04-11 03:28:54,70.2396,22.3479,35.67,94,100,10.96,snow,0,0
489,Samarai,PG,2022-04-11 03:28:55,-10.6167,150.6667,86.11,70,39,16.58,scattered clouds,0,0
490,Yeniseysk,RU,2022-04-11 03:28:55,58.4497,92.1703,22.41,76,88,8.84,overcast clouds,0,0
491,Chicama,PE,2022-04-11 03:28:56,-7.8447,-79.1469,64.94,83,75,6.53,broken clouds,0,0
492,Teeli,RU,2022-04-11 03:28:56,51.0333,90.2333,35.08,48,61,4.29,broken clouds,0,0
493,Togur,RU,2022-04-11 03:28:57,58.3631,82.8265,21.58,84,98,3.47,overcast clouds,0,0
494,Codrington,AU,2022-04-11 03:28:57,-38.2667,141.9667,60.57,52,73,11.01,broken clouds,0,0
495,Masuda,JP,2022-04-11 03:28:58,34.6667,131.85,68.27,60,75,8.05,broken clouds,0,0
496,Olafsvik,IS,2022-04-11 03:28:58,64.8945,-23.7142,36.36,77,69,12.12,broken clouds,0,0
497,Sembakung,ID,2022-04-11 03:28:59,3.8167,117.25,88.54,58,98,3.2,overcast clouds,0,0
498,Murighiol,RO,2022-04-11 03:29:00,45.0333,29.1667,41.49,91,100,19.08,overcast clouds,0,0
499,Jumla,NP,2022-04-11 03:29:00,29.2747,82.1838,66.29,27,0,4.54,clear sky,0,0
500,Oriximina,BR,2022-04-11 03:29:01,-1.7656,-55.8661,74.25,96,98,2.84,overcast clouds,0,0
501,Carora,VE,2022-04-11 03:29:01,10.1755,-70.0827,77.88,65,71,9.17,broken clouds,0,0
502,Doctor Arroyo,MX,2022-04-11 03:29:02,23.6667,-100.1833,72.54,23,47,9.89,scattered clouds,0,0
503,Sharan,RU,2022-04-11 03:29:03,54.8167,54.0,41.27,87,99,4.29,overcast clouds,0,0
504,Jiuquan,CN,2022-04-11 03:29:03,39.7432,98.5174,48.76,27,93,8.32,overcast clouds,0,0
505,North Las Vegas,US,2022-04-11 03:25:32,36.1989,-115.1175,71.02,10,0,5.75,clear sky,0,0
506,Coachella,US,2022-04-11 03:29:04,33.6803,-116.1739,78.75,38,0,19.57,clear sky,0,0
507,Kudahuvadhoo,MV,2022-04-11 03:29:05,2.6708,72.8944,84.13,71,24,11.36,few clouds,0,0
508,Ilula,TZ,2022-04-11 03:29:05,-7.6766,36.0366,60.03,99,100,4.54,overcast clouds,0,0
509,Maputo,MZ,2022-04-11 03:29:06,-25.9653,32.5892,67.68,94,100,12.66,light rain,0,0
510,Vrangel,RU,2022-04-11 03:29:07,42.7297,133.0839,45.75,80,48,13.69,scattered clouds,0,0
511,Gandorhun,SL,2022-04-11 03:29:07,7.5,-11.8333,76.89,94,76,2.48,broken clouds,0,0
512,Mbulu,TZ,2022-04-11 03:29:08,-3.85,35.5333,55.17,96,93,10.02,overcast clouds,0,0
513,Altay,CN,2022-04-11 03:29:08,47.8667,88.1167,39.02,41,0,0.18,clear sky,0,0
514,Sasykoli,RU,2022-04-11 03:29:08,47.5515,46.9968,53.31,70,69,7.18,broken clouds,0,0
515,Jalu,LY,2022-04-11 03:29:09,29.0331,21.5482,63.84,36,0,13.98,clear sky,0,0
516,Gazanjyk,TM,2022-04-11 03:29:10,39.2446,55.5154,59.52,78,94,4.12,overcast clouds,0,0
517,Gagnoa,CI,2022-04-11 03:29:10,6.1293,-5.9437,73.85,98,34,2.59,scattered clouds,0,0
518,Ridgecrest,US,2022-04-11 03:29:11,35.6225,-117.6709,66.06,17,0,24.16,clear sky,0,0
519,Pochutla,MX,2022-04-11 03:29:12,15.7432,-96.4661,80.82,66,30,4.97,scattered clouds,0,0
520,Paso De Patria,AR,2022-04-11 03:29:12,-27.2454,-58.5454,68.05,97,79,8.68,heavy intensity rain,0,0
521,Fuyu,CN,2022-04-11 03:29:13,45.1833,124.8167,45.46,56,100,11.12,overcast clouds,0,0
522,Portland,US,2022-04-11 03:28:24,45.5234,-122.6762,40.84,91,100,9.22,moderate rain,0,0
523,Sao Miguel Do Araguaia,BR,2022-04-11 03:29:14,-13.275,-50.1628,74.91,77,7,0.56,clear sky,0,0
524,Port Macquarie,AU,2022-04-11 03:29:14,-31.4333,152.9167,80.89,62,0,6.55,clear sky,0,0
525,Asbestovskiy,RU,2022-04-11 03:29:15,57.7557,61.3967,34.99,88,86,4.25,overcast clouds,0,0
526,La Ronge,CA,2022-04-11 03:29:16,55.1001,-105.2842,17.85,79,100,16.11,overcast clouds,0,0
527,Beringovskiy,RU,2022-04-11 03:29:16,63.05,179.3167,31.37,85,100,8.28,overcast clouds,0,0
528,Bosconia,CO,2022-04-11 03:29:16,9.9689,-73.8836,81.34,64,39,2.42,scattered clouds,0,0
529,Chapais,CA,2022-04-11 03:29:17,49.7834,-74.8492,29.98,98,78,0.83,broken clouds,0,0
530,Paamiut,GL,2022-04-11 03:29:18,61.994,-49.6678,27.19,75,100,9.8,overcast clouds,0,0
531,Sabha,LY,2022-04-11 03:29:19,27.0377,14.4283,64.17,22,0,17.92,clear sky,0,0
532,Sao Jose Da Coroa Grande,BR,2022-04-11 03:29:19,-8.8978,-35.1478,77.95,76,7,5.97,clear sky,0,0
533,Lichinga,MZ,2022-04-11 03:29:20,-13.3128,35.2406,62.69,100,40,10.36,thunderstorm,0,0
534,Amga,RU,2022-04-11 03:29:20,60.8953,131.9608,25.38,72,88,5.68,overcast clouds,0,0
535,Chiman,PK,2022-04-11 03:29:20,32.5463,73.8138,86.86,17,65,3.71,broken clouds,0,0
536,Hirara,JP,2022-04-11 03:29:21,24.8,125.2833,79.07,83,75,16.11,broken clouds,0,0
537,Fredericksburg,US,2022-04-11 03:29:22,38.3032,-77.4605,44.92,72,0,0.0,clear sky,0,0
538,Khorinsk,RU,2022-04-11 03:29:22,52.1657,109.7726,38.61,37,72,10.36,broken clouds,0,0
539,Balkanabat,TM,2022-04-11 03:29:23,39.5108,54.3671,58.95,69,2,3.04,clear sky,0,0
